Name,PilotLat,PilotLon,CenterLat,CenterLon
TITOSE,36.1275623,139.3851179,36.14079214,139.3952389
MISAWA,35.78799161,139.4676772,35.769847,139.468754
MATUSIMA,35.77799161,139.4376772,36.18064836,139.656474
IRUMA,33.463356,133.477724,33.4642706,133.4782675
KOMATU,35.390025,135.169869,35.3890729,135.1702747
